{
  "type": "FeatureCollection",
  "name": "Bukit Panjang LRT",
  "crs": {
    "type": "name",
    "properties": {
      "name": "urn:ogc:def:crs:OGC:1.3:CRS84"
    }
  },
  "features": [
    {
      "type": "Feature",
      "properties": {"Name": "Choa Chu Kang ","code": null,"name2": null},
      "geometry": {"type": "Point","coordinates": [103.744549, 1.384996]}},{
      "type": "Feature",
      "properties": {"Name": "South View","code": null,"name2": null},
      "geometry": {"type": "Point","coordinates": [103.745261, 1.380297]}},{
      "type": "Feature",
      "properties": {"Name": "Keat Hong","code": null,"name2": null},
      "geometry": {"type": "Point","coordinates": [103.749015, 1.378608]}},{
      "type": "Feature",
      "properties": {"Name": "Teck Whye","code": null,"name2": null},
      "geometry": {"type": "Point","coordinates": [103.753689, 1.376635]}},{
      "type": "Feature",
      "properties": {"Name": "Phoenix ","code": null,"name2": null},
      "geometry": {"type": "Point","coordinates": [103.758031, 1.378598]}},{
      "type": "Feature",
      "properties": {"Name": "Bukit Panjang ","code": null,"name2": null},
      "geometry": {"type": "Point","coordinates": [103.762951, 1.377934]}},{
      "type": "Feature",
      "properties": {"Name": "Petir","code": null,"name2": null},
      "geometry": {"type": "Point","coordinates": [103.766678, 1.377721]}},{
      "type": "Feature",
      "properties": {"Name": "Pending","code": null,"name2": null},
      "geometry": {"type": "Point","coordinates": [103.771301, 1.376127]}},{
      "type": "Feature",
      "properties": {"Name": "Bangkit","code": null,"name2": null},
      "geometry": {"type": "Point","coordinates": [103.772635, 1.380005]}},{
      "type": "Feature",
      "properties": {"Name": "Fajar","code": null,"name2": null},
      "geometry": {"type": "Point","coordinates": [103.770891, 1.384475]}},{
      "type": "Feature",
      "properties": {"Name": "Segar)","code": null,"name2": null},
      "geometry": {"type": "Point","coordinates": [103.76966, 1.38776]}},{
      "type": "Feature",
      "properties": {"Name": "Jelapang","code": null,"name2": null},
      "geometry": {"type": "Point","coordinates": [103.7645, 1.3867]}},{
      "type": "Feature",
      "properties": {"Name": "Senja","code": null,"name2": null},
      "geometry": {"type": "Point","coordinates": [103.76237, 1.3827]}
    }
  ]
}
