{
  "type": "FeatureCollection",
  "name": "Downtown Line",
  "crs": {
    "type": "name",
    "properties": {
      "name": "urn:ogc:def:crs:OGC:1.3:CRS84"
    }
  },
  "features": [
    {
      "type": "Feature","properties": {"Name": "DT1 Bukit Panjang","code": null,"name2": null
      },"geometry": {"type": "Point","coordinates": [103.761431, 1.378604]
      }},{
      "type": "Feature","properties": {"Name": "DT3 Hillview","code": null,"name2": null
      },"geometry": {"type": "Point","coordinates": [103.767308, 1.362265]
      }},{
      "type": "Feature","properties": {"Name": "DT4 Hume","code": null,"name2": null
      },"geometry": {"type": "Point","coordinates": [103.769065, 1.354916]
      }},{
      "type": "Feature","properties": {"Name": "DT5 Beauty World","code": null,"name2": null
      },"geometry": {"type": "Point","coordinates": [103.775746, 1.341553]
      }},{
      "type": "Feature","properties": {"Name": "DT6 King Albert Park","code": null,"name2": null
      },"geometry": {"type": "Point","coordinates": [103.783192, 1.335689]
      }},{
      "type": "Feature","properties": {"Name": "DT7 Sixth Avenue","code": null,"name2": null
      },"geometry": {"type": "Point","coordinates": [103.797201, 1.331177]
      }},{
      "type": "Feature","properties": {"Name": "DT8 Tan Kah Kee","code": null,"name2": null
      },"geometry": {"type": "Point","coordinates": [103.807956, 1.3258]
      }},{
      "type": "Feature","properties": {"Name": "DT9 Botanic Gardens","code": null,"name2": null
      },"geometry": {"type": "Point","coordinates": [103.816069, 1.322816]
      }},{
      "type": "Feature","properties": {"Name": "DT10 Stevens","code": null,"name2": null
      },"geometry": {"type": "Point","coordinates": [103.825943, 1.319958]
      }},{
      "type": "Feature","properties": {"Name": "DT11 Newton","code": null,"name2": null
      },"geometry": {"type": "Point","coordinates": [103.838031, 1.313788]
      }},{
      "type": "Feature","properties": {"Name": "DT12 Little India","code": null,"name2": null
      },"geometry": {"type": "Point","coordinates": [103.848804, 1.306433]
      }},{
      "type": "Feature","properties": {"Name": "DT13 Rochor","code": null,"name2": null
      },"geometry": {"type": "Point","coordinates": [103.852559, 1.303536]
      }},{
      "type": "Feature","properties": {"Name": "DT14 Bugis","code": null,"name2": null
      },"geometry": {"type": "Point","coordinates": [103.855642, 1.300842]
      }},{
      "type": "Feature","properties": {"Name": "DT15 Promenade","code": null,"name2": null
      },"geometry": {"type": "Point","coordinates": [103.860837, 1.294012]
      }},{
      "type": "Feature","properties": {"Name": "DT16 Bayfront","code": null,"name2": null
      },"geometry": {"type": "Point","coordinates": [103.85874, 1.281478]
      }},{
      "type": "Feature","properties": {"Name": "DT17 Downtown","code": null,"name2": null
      },"geometry": {"type": "Point","coordinates": [103.852813, 1.279458]
      }},{
      "type": "Feature","properties": {"Name": "DT18 Telok Ayer","code": null,"name2": null
      },"geometry": {"type": "Point","coordinates": [103.848595, 1.282221]
      }},{
      "type": "Feature","properties": {"Name": "DT19 Chinatown","code": null,"name2": null
      },"geometry": {"type": "Point","coordinates": [103.84358, 1.28532]
      }},{
      "type": "Feature","properties": {"Name": "DT20 Fort Canning","code": null,"name2": null
      },"geometry": {"type": "Point","coordinates": [103.844376, 1.292552]
      }},{
      "type": "Feature","properties": {"Name": "DT21 Bencoolen","code": null,"name2": null
      },"geometry": {"type": "Point","coordinates": [103.849972, 1.298455]
      }},{
      "type": "Feature","properties": {"Name": "DT22 Jalan Besar","code": null,"name2": null
      },"geometry": {"type": "Point","coordinates": [103.855432, 1.305509]
      }},{
      "type": "Feature","properties": {"Name": "DT23 Bendemeer","code": null,"name2": null
      },"geometry": {"type": "Point","coordinates": [103.863066, 1.313621]
      }},{
      "type": "Feature","properties": {"Name": "DT24 Geylang Bahru","code": null,"name2": null
      },"geometry": {"type": "Point","coordinates": [103.871566, 1.321486]
      }},{
      "type": "Feature","properties": {"Name": "DT25 Mattar","code": null,"name2": null
      },"geometry": {"type": "Point","coordinates": [103.883304, 1.326846]
      }},{
      "type": "Feature","properties": {"Name": "DT26 MacPherson","code": null,"name2": null
      },"geometry": {"type": "Point","coordinates": [103.889984, 1.32656]
      }},{
      "type": "Feature","properties": {"Name": "DT27 Ubi","code": null,"name2": null
      },"geometry": {"type": "Point","coordinates": [103.898932, 1.329924]
      }},{
      "type": "Feature","properties": {"Name": "DT28 Kaki Bukit","code": null,"name2": null
      },"geometry": {"type": "Point","coordinates": [103.908965, 1.334919]
      }},{
      "type": "Feature","properties": {"Name": "DT29 Bedok North","code": null,"name2": null
      },"geometry": {"type": "Point","coordinates": [103.918046, 1.335244]
      }},{
      "type": "Feature","properties": {"Name": "DT30 Bedok Reservoir","code": null,"name2": null
      },"geometry": {"type": "Point","coordinates": [103.933091, 1.336542]
      }},{
      "type": "Feature","properties": {"Name": "DT31 Tampines West","code": null,"name2": null
      },"geometry": {"type": "Point","coordinates": [103.938243, 1.345508]
      }},{
      "type": "Feature","properties": {"Name": "DT32. Tampines","code": null,"name2": null
      },"geometry": {"type": "Point","coordinates": [103.942981, 1.355089]
      }},{
      "type": "Feature","properties": {"Name": "DT33 Tampines East","code": null,"name2": null
      },"geometry": {"type": "Point","coordinates": [103.955466, 1.35625]
      }},{
      "type": "Feature","properties": {"Name": "DT34 Upper Changi","code": null,"name2": null
      },"geometry": {"type": "Point","coordinates": [103.961456, 1.341631]
      }},{
      "type": "Feature","properties": {"Name": "DT35 Expo","code": null,"name2": null
      },"geometry": {"type": "Point","coordinates": [103.962682, 1.335081]
      }
    }
  ]
}
