{
  "type": "FeatureCollection",
  "name": "North South Line",
  "crs": {
    "type": "name",
    "properties": { "name": "urn:ogc:def:crs:OGC:1.3:CRS84" }
  },
  "features": [
    {
      "type": "Feature","properties": { "Name": "Jurong East", "code": null, "name2": null },"geometry": { "type": "Point", "coordinates": [103.742237, 1.333131] }},{
      "type": "Feature","properties": { "Name": "Bukit Batok", "code": null, "name2": null },"geometry": { "type": "Point", "coordinates": [103.749588, 1.349064] }},{
      "type": "Feature","properties": { "Name": "Bukit Gombak", "code": null, "name2": null },"geometry": { "type": "Point", "coordinates": [103.75183, 1.358916] }},{
      "type": "Feature","properties": {"Name": "Choa Chu Kang","code": null,"name2": null
      },"geometry": { "type": "Point", "coordinates": [103.744342, 1.385363] }},{
      "type": "Feature","properties": { "Name": "Yew Tee", "code": null, "name2": null },"geometry": { "type": "Point", "coordinates": [103.747501, 1.39733] }},{
      "type": "Feature","properties": {"Name": " Sungei Kadut(UC)","code": null,"name2": null
      },"geometry": { "type": "Point", "coordinates": [103.749003, 1.41226] }},{
      "type": "Feature","properties": { "Name": "Kranji", "code": null, "name2": null },"geometry": { "type": "Point", "coordinates": [103.762028, 1.425227] }},{
      "type": "Feature","properties": { "Name": "Marsiling", "code": null, "name2": null },"geometry": { "type": "Point", "coordinates": [103.77416, 1.432558] }},{
      "type": "Feature","properties": { "Name": "Woodlands", "code": null, "name2": null },"geometry": { "type": "Point", "coordinates": [103.786396, 1.436942] }},{
      "type": "Feature","properties": { "Name": "Admiralty", "code": null, "name2": null },"geometry": { "type": "Point", "coordinates": [103.800966, 1.440605] }},{
      "type": "Feature","properties": { "Name": "Sembawang", "code": null, "name2": null },"geometry": { "type": "Point", "coordinates": [103.820048, 1.44909] }},{
      "type": "Feature","properties": { "Name": "Canberra", "code": null, "name2": null },"geometry": { "type": "Point", "coordinates": [103.829574, 1.443283] }},{
      "type": "Feature","properties": { "Name": "Yishun", "code": null, "name2": null },"geometry": { "type": "Point", "coordinates": [103.835006, 1.429442] }},{
      "type": "Feature","properties": { "Name": "Khatib", "code": null, "name2": null },"geometry": { "type": "Point", "coordinates": [103.832973, 1.417348] }},{
      "type": "Feature","properties": {"Name": "Yio Chu Kang","code": null,"name2": null
      },"geometry": { "type": "Point", "coordinates": [103.844935, 1.381721] }},{
      "type": "Feature","properties": { "Name": "Ang Mo Kio", "code": null, "name2": null },"geometry": { "type": "Point", "coordinates": [103.849588, 1.369971] }},{
      "type": "Feature","properties": { "Name": "Bishan", "code": null, "name2": null },"geometry": { "type": "Point", "coordinates": [103.848173, 1.350845] }},{
      "type": "Feature","properties": { "Name": "Braddell", "code": null, "name2": null },"geometry": { "type": "Point", "coordinates": [103.847076, 1.34054] }},{
      "type": "Feature","properties": { "Name": "Toa Payoh", "code": null, "name2": null },"geometry": { "type": "Point", "coordinates": [103.847484, 1.332657] }},{
      "type": "Feature","properties": { "Name": "Novena", "code": null, "name2": null },"geometry": { "type": "Point", "coordinates": [103.843936, 1.320588] }},{
      "type": "Feature","properties": { "Name": "Newton", "code": null, "name2": null },"geometry": { "type": "Point", "coordinates": [103.83806, 1.312251] }},{
      "type": "Feature","properties": { "Name": "Orchard", "code": null, "name2": null },"geometry": { "type": "Point", "coordinates": [103.83178, 1.304008] }},{
      "type": "Feature","properties": { "Name": "Somerset", "code": null, "name2": null },"geometry": { "type": "Point", "coordinates": [103.838439, 1.300444] }},{
      "type": "Feature","properties": { "Name": "Dhoby Ghaut", "code": null, "name2": null },"geometry": { "type": "Point", "coordinates": [103.845697, 1.29867] }},{
      "type": "Feature","properties": { "Name": "City Hall", "code": null, "name2": null },"geometry": { "type": "Point", "coordinates": [103.852135, 1.293076] }},{
      "type": "Feature","properties": {"Name": "Raffles Place","code": null,"name2": null
      },"geometry": { "type": "Point", "coordinates": [103.851599, 1.284183] }},{
      "type": "Feature","properties": { "Name": "Marina Bay", "code": null, "name2": null },"geometry": { "type": "Point", "coordinates": [103.854598, 1.276427] }},{
      "type": "Feature","properties": {"Name": "Marina South Pier","code": null,"name2": null
      },"geometry": { "type": "Point", "coordinates": [103.863592, 1.271389] }
    }
  ]
}
